{
  "lastUpdated": "2026-01-22",
  "brands": [
    {
      "brandName": "Luuca",
      "category": "Food & Beverage",
      "website": "https://luucaindonesia.id/outlet/",
      "totalOutlets": 78,
      "regions": [
        {
          "region": "Kepulauan Riau",
          "outlets": [
            {
              "name": "LUUCA Tanjung Pinang",
              "address": "Jl. Arah Tj. Uban - Tj. Pinang Ruko No.16",
              "city": "Kota Tanjung Pinang",
              "region": "Kepulauan Riau",
              "coordinates": {
                "lat": 0.9236915,
                "lng": 104.446094
              }
            },
            {
              "name": "Luuca Batu Aji Batam",
              "address": "Sp plaza ruko baru , Jl. Letjen R. Suprapto Ruko SP3 Blok Mawar No. 22, kel. Langkai",
              "city": "Kota Batam",
              "region": "Kepulauan Riau",
              "coordinates": {
                "lat": 1.1030815,
                "lng": 104.0383696
              }
            },
            {
              "name": "Luuca Greenland Batam",
              "address": "42FW+VGR, Jl. Raja M Tahir",
              "city": "Kota Batam",
              "region": "Kepulauan Riau",
              "coordinates": {
                "lat": 1.1030815,
                "lng": 104.0383696
              }
            }
          ]
        },
        {
          "region": "Daerah Khusus Ibukota Jakarta",
          "outlets": [
            {
              "name": "Luuca LRT Dukuh Atas",
              "address": "QRWG+36F, Dukuh Atas",
              "city": "Kota Jakarta Selatan",
              "region": "Daerah Khusus Ibukota Jakarta",
              "coordinates": {
                "lat": -6.2838694,
                "lng": 106.8048297
              }
            },
            {
              "name": "Luuca Kota Kasablanka",
              "address": "QRGV+93R, Jl. Raya Casablanca, RT.14/RW.5",
              "city": "Kota Jakarta Selatan",
              "region": "Daerah Khusus Ibukota Jakarta",
              "coordinates": {
                "lat": -6.2838694,
                "lng": 106.8048297
              }
            },
            {
              "name": "LUUCA Pondok Kelapa",
              "address": "Jl. Pd. Kelapa Raya L9 No.4A, RT.4/RW.9",
              "city": "Kota Jakarta Timur",
              "region": "Daerah Khusus Ibukota Jakarta",
              "coordinates": {
                "lat": -6.2628908,
                "lng": 106.8822289
              }
            },
            {
              "name": "Luuca Kemanggisan",
              "address": "START UP!, Jl. Kyai H. Taisir No.3 No.11 NO 88G, RT.3/RW.11",
              "city": "Kota Jakarta Barat",
              "region": "Daerah Khusus Ibukota Jakarta",
              "coordinates": {
                "lat": -6.161569,
                "lng": 106.7438905
              }
            },
            {
              "name": "Luuca Mal Taman Anggrek",
              "address": "Jl. Letjen S. Parman No.Kav 21, RT.12/RW.1",
              "city": "Kota Jakarta Barat",
              "region": "Daerah Khusus Ibukota Jakarta",
              "coordinates": {
                "lat": -6.161569,
                "lng": 106.7438905
              }
            },
            {
              "name": "Luuca Green Lake Jakarta",
              "address": "Jl. Green Lake City Boulevard No.RGLE - 06",
              "city": "Kota Jakarta Barat",
              "region": "Daerah Khusus Ibukota Jakarta",
              "coordinates": {
                "lat": -6.161569,
                "lng": 106.7438905
              }
            },
            {
              "name": "Luuca Central Park",
              "address": "Letjen S. Parman No.28, RT.12/RW.6",
              "city": "Kota Jakarta Barat",
              "region": "Daerah Khusus Ibukota Jakarta",
              "coordinates": {
                "lat": -6.161569,
                "lng": 106.7438905
              }
            },
            {
              "name": "Lumi Luca Indonesia",
              "address": "RT.4/RW.12",
              "city": "Kota Jakarta Timur",
              "region": "Daerah Khusus Ibukota Jakarta",
              "coordinates": {
                "lat": -6.2743382,
                "lng": 106.816502
              }
            },
            {
              "name": "Luuca Kalideres",
              "address": "Ruko daan tampak siring blok3a, RT.8/RW.12",
              "city": "Kota Jakarta Barat",
              "region": "Daerah Khusus Ibukota Jakarta",
              "coordinates": {
                "lat": -6.161569,
                "lng": 106.7438905
              }
            },
            {
              "name": "Luuca Pluit",
              "address": "Muara Karang.259, Blo A6U Kav. 22",
              "city": "Jkt Utara",
              "region": "Daerah Khusus Ibukota Jakarta",
              "coordinates": {
                "lat": -6.1166622,
                "lng": 106.7786307
              }
            },
            {
              "name": "Luuca Green Pramuka",
              "address": "Jl. Jenderal Ahmad Yani No.Kav .49",
              "city": "Kota Jakarta Pusat",
              "region": "Daerah Khusus Ibukota Jakarta",
              "coordinates": {
                "lat": -6.18234,
                "lng": 106.8428715
              }
            },
            {
              "name": "Luuca BENHIL",
              "address": "Jl. Bendungan Hilir No.13, RT.13/RW.6",
              "city": "Kota Jakarta Pusat",
              "region": "Daerah Khusus Ibukota Jakarta",
              "coordinates": {
                "lat": -6.18234,
                "lng": 106.8428715
              }
            },
            {
              "name": "Luuca Citra Garden 8",
              "address": "Jl. Sunset Avenue No.5",
              "city": "Kota Jakarta Barat",
              "region": "Daerah Khusus Ibukota Jakarta",
              "coordinates": {
                "lat": -6.161569,
                "lng": 106.7438905
              }
            }
          ]
        },
        {
          "region": "Jawa Timur",
          "outlets": [
            {
              "name": "Luuca MOG Malang",
              "address": "MR DIY, MOG Malang, Lt 3 unit EFF depan",
              "city": "Kota Malang",
              "region": "Jawa Timur",
              "coordinates": {
                "lat": -7.9771308,
                "lng": 112.6340265
              }
            },
            {
              "name": "Luuca Ice Cream Suncity Mall Sidoarjo",
              "address": "HP26+8J3, Jl. Pahlawan",
              "city": "Kabupaten Sidoarjo",
              "region": "Jawa Timur",
              "coordinates": {
                "lat": -7.4539769,
                "lng": 112.6593869
              }
            },
            {
              "name": "Luuca Sunrise Mall",
              "address": "Sunrise Mall, Jl. Benteng Pancasila No.9 lantai 2",
              "city": "Kota Mojokerto",
              "region": "Jawa Timur",
              "coordinates": {
                "lat": -7.4631537,
                "lng": 112.4319852
              }
            },
            {
              "name": "Luuca Pakuwon City",
              "address": "Jalan Kejawan Putih Mutiara Ruko Patos FR1-7 Pakuwon City Sukolilo",
              "city": "Surabaya",
              "region": "Jawa Timur",
              "coordinates": {
                "lat": -7.2462836,
                "lng": 112.7377674
              }
            },
            {
              "name": "Luuca Tunjungan Plaza 1 LG",
              "address": "Tunjungan Plaza",
              "city": "Surabaya",
              "region": "Jawa Timur",
              "coordinates": {
                "lat": -7.2623869,
                "lng": 112.739006
              }
            },
            {
              "name": "Luuca Plaza Surabaya",
              "address": "No.34 Lt, Plaza Surabaya, Jl. Pemuda No.2",
              "city": "Surabaya",
              "region": "Jawa Timur",
              "coordinates": {
                "lat": -7.2462836,
                "lng": 112.7377674
              }
            },
            {
              "name": "Luuca Ciputra World Surabaya",
              "address": "PP4C+V46",
              "city": "Surabaya",
              "region": "Jawa Timur",
              "coordinates": {
                "lat": -7.2462836,
                "lng": 112.7377674
              }
            },
            {
              "name": "Luuca Pakuwon Mall",
              "address": "PM6G+CXG, Jl. Mayjend. Jonosewojo",
              "city": "Surabaya",
              "region": "Jawa Timur",
              "coordinates": {
                "lat": -7.2462836,
                "lng": 112.7377674
              }
            },
            {
              "name": "LUUCA BG junction",
              "address": "bg junction mall, Jl. Bubutan No.1-7 lt L2 foodcourt",
              "city": "Surabaya",
              "region": "Jawa Timur",
              "coordinates": {
                "lat": -7.2462836,
                "lng": 112.7377674
              }
            },
            {
              "name": "Luuca Galaxy Mall Surabaya",
              "address": "Jl. Dr. Ir. H. Soekarno No.35",
              "city": "Surabaya",
              "region": "Jawa Timur",
              "coordinates": {
                "lat": -7.2462836,
                "lng": 112.7377674
              }
            },
            {
              "name": "Luuca Royal Plaza",
              "address": "Jl. A Yani Frontage Barat No.16",
              "city": "Surabaya",
              "region": "Jawa Timur",
              "coordinates": {
                "lat": -7.2462836,
                "lng": 112.7377674
              }
            },
            {
              "name": "Luuca Lippo Plaza Mall Sidoarjo",
              "address": "Jl. Jati Raya No.1",
              "city": "Kabupaten Sidoarjo",
              "region": "Jawa Timur",
              "coordinates": {
                "lat": -7.4539769,
                "lng": 112.6593869
              }
            },
            {
              "name": "Luuca ice cream",
              "address": "Jl. Dharmahusada Indah Timur No.35-37",
              "city": "Surabaya",
              "region": "Jawa Timur",
              "coordinates": {
                "lat": -7.2462836,
                "lng": 112.7377674
              }
            }
          ]
        },
        {
          "region": "Kalimantan Barat",
          "outlets": [
            {
              "name": "Luuca Indonesia",
              "address": "Jl. Putri Dara Nante No.18A",
              "city": "Kota Pontianak",
              "region": "Kalimantan Barat",
              "coordinates": {
                "lat": -0.0226903,
                "lng": 109.3447488
              }
            },
            {
              "name": "Luuca Martadinata",
              "address": "Jl. Re.Martadinata",
              "city": "Kota Pontianak",
              "region": "Kalimantan Barat",
              "coordinates": {
                "lat": -0.0226903,
                "lng": 109.3447488
              }
            },
            {
              "name": "LUUCA",
              "address": "Komplek Java Square, Jl. Uray Bawadi NO. 4",
              "city": "Kota Pontianak",
              "region": "Kalimantan Barat",
              "coordinates": {
                "lat": -0.0226903,
                "lng": 109.3447488
              }
            },
            {
              "name": "Luuca Tanjung Pura",
              "address": "Jl. Tanjung Pura No.238",
              "city": "Kota Pontianak",
              "region": "Kalimantan Barat",
              "coordinates": {
                "lat": -0.0226903,
                "lng": 109.3447488
              }
            },
            {
              "name": "Luuca Sintang",
              "address": "Jl. Lintas Melawi",
              "city": "Kabupaten Sintang",
              "region": "Kalimantan Barat",
              "coordinates": {
                "lat": -0.1228766,
                "lng": 111.5167528
              }
            },
            {
              "name": "Luca Ice Cream",
              "address": "W8XW+C63, Jl. Jenderal Ahmad Yani",
              "city": "Kota Pontianak",
              "region": "Kalimantan Barat",
              "coordinates": {
                "lat": -0.0226903,
                "lng": 109.3447488
              }
            },
            {
              "name": "Luuca Ice Cream Sambas",
              "address": "Jl. Tabrani No.443",
              "city": "Kabupaten Sambas",
              "region": "Kalimantan Barat",
              "coordinates": {
                "lat": 1.52191,
                "lng": 109.413809
              }
            },
            {
              "name": "LUUCA NGABANG",
              "address": "Dusun Jl. Raya Pulau Bendu No.39",
              "city": "Kabupaten Landak",
              "region": "Kalimantan Barat",
              "coordinates": {
                "lat": 0.504635,
                "lng": 109.7070383
              }
            },
            {
              "name": "Luuca Sungai Raya Dalam",
              "address": "Jl. Sungai Raya Dalam",
              "city": "Kabupaten Kubu Raya",
              "region": "Kalimantan Barat",
              "coordinates": {
                "lat": -0.3694842,
                "lng": 109.5123558
              }
            },
            {
              "name": "LUUCA S.PARMAN",
              "address": "Komplek Ruko Villa Palma, Jl.Letjen Sparman No. A6",
              "city": "Kota Pontianak",
              "region": "Kalimantan Barat",
              "coordinates": {
                "lat": -0.0226903,
                "lng": 109.3447488
              }
            },
            {
              "name": "LUUCA KETAPANG",
              "address": "4XWC+XPC, Jl. DR. Sutomo",
              "city": "Kabupaten Ketapang",
              "region": "Kalimantan Barat",
              "coordinates": {
                "lat": -1.6814966,
                "lng": 110.4647607
              }
            },
            {
              "name": "Luuca Singkawang",
              "address": "Jl. Alianyang No.20a",
              "city": "Kota Singkawang",
              "region": "Kalimantan Barat",
              "coordinates": {
                "lat": 0.9069861,
                "lng": 108.9889657
              }
            },
            {
              "name": "LUUCA SINGKAWANG GRAND MALL",
              "address": "VXX9+9V",
              "city": "Kota Singkawang",
              "region": "Kalimantan Barat",
              "coordinates": {
                "lat": 0.9069861,
                "lng": 108.9889657
              }
            }
          ]
        },
        {
          "region": "Jawa Barat",
          "outlets": [
            {
              "name": "Luuca Harapan Indah",
              "address": "RX7M+82F, Jl. Boulevard Hijau Raya, RT.006/RW.030",
              "city": "Kota Bks",
              "region": "Jawa Barat",
              "coordinates": {
                "lat": -6.1766013,
                "lng": 107.0090608
              }
            },
            {
              "name": "Luuca Sutami",
              "address": "Jl. Prof. Dr. Sutami No.33",
              "city": "Kota Bandung",
              "region": "Jawa Barat",
              "coordinates": {
                "lat": -6.9218457,
                "lng": 107.6070833
              }
            },
            {
              "name": "Luuca, Grand Galaxy City",
              "address": "Jl. Boulevard Raya No.23, RT.007/RW.017",
              "city": "Kota Bks",
              "region": "Jawa Barat",
              "coordinates": {
                "lat": -6.1766013,
                "lng": 107.0090608
              }
            },
            {
              "name": "Luuca Bandung",
              "address": "Jl. Mekar Utama No.43",
              "city": "Kota Bandung",
              "region": "Jawa Barat",
              "coordinates": {
                "lat": -6.9532952,
                "lng": 107.6081855
              }
            },
            {
              "name": "Luuca Parung Panjang",
              "address": "JHX9+F9Q, Jl. Sentraland Blvd",
              "city": "Kabupaten Bogor",
              "region": "Jawa Barat",
              "coordinates": {
                "lat": -6.5453875,
                "lng": 107.001782
              }
            },
            {
              "name": "Luuca Grand Wisata Bekasi",
              "address": "Ruko New Westfield Blok ER 5 No.2, RT.002/RW.010",
              "city": "Kota Bks",
              "region": "Jawa Barat",
              "coordinates": {
                "lat": -6.1766013,
                "lng": 107.0090608
              }
            },
            {
              "name": "Luuca Pakuwon Mall Bekasi",
              "address": "PXVQ+JWH, RT.001/RW.002",
              "city": "Kota Bks",
              "region": "Jawa Barat",
              "coordinates": {
                "lat": -6.1766013,
                "lng": 107.0090608
              }
            },
            {
              "name": "Luuca Cirebon Super Block Mall",
              "address": "Super Blok, Jl. Cipto Mangunkusumo No.26 Lantai LG",
              "city": "Kota Cirebon",
              "region": "Jawa Barat",
              "coordinates": {
                "lat": -6.7302486,
                "lng": 108.5439665
              }
            },
            {
              "name": "Luuca Pangandaran",
              "address": "Jl. Kidang Pananjung No.181",
              "city": "Kab. Pangandaran",
              "region": "Jawa Barat",
              "coordinates": {
                "lat": -7.6933318,
                "lng": 108.5072734
              }
            },
            {
              "name": "Luuca Sumedang",
              "address": "5W5G+M7P, Gg. Ita",
              "city": "Kabupaten Sumedang",
              "region": "Jawa Barat",
              "coordinates": {
                "lat": -6.8098713,
                "lng": 107.9817732
              }
            },
            {
              "name": "Luuca Ramayana Garut",
              "address": "Kp. Awilega, rt01/rw04Kabupaten",
              "city": "Kabupaten Garut",
              "region": "Jawa Barat",
              "coordinates": {
                "lat": -7.2162774,
                "lng": 107.9014912
              }
            },
            {
              "name": "Luuca Shila Sawangan Depok",
              "address": "HPXW+GP",
              "city": "Kota Depok",
              "region": "Jawa Barat",
              "coordinates": {
                "lat": -6.40719,
                "lng": 106.8158371
              }
            }
          ]
        },
        {
          "region": "Banten",
          "outlets": [
            {
              "name": "Luuca Bintaro Xchange Mall 2",
              "address": "Jl. Lkr. Jaya No.12",
              "city": "Kota Tangerang Selatan",
              "region": "Banten",
              "coordinates": {
                "lat": -6.3227016,
                "lng": 106.7085737
              }
            },
            {
              "name": "Luuca BSD Serpong",
              "address": "BA No.20",
              "city": "Kota Tangerang Selatan",
              "region": "Banten",
              "coordinates": {
                "lat": -6.262016,
                "lng": 106.7569356
              }
            },
            {
              "name": "Luuca Gading Serpong",
              "address": "Ruko Maggiore Paramount Land. 53 A",
              "city": "Kabupaten Tangerang",
              "region": "Banten",
              "coordinates": {
                "lat": -6.1644013,
                "lng": 106.4679311
              }
            },
            {
              "name": "Luuca Graha Raya",
              "address": "Jl. Kby. Utama No.19 Blok G1, RT.2/RW.9",
              "city": "Kota Tangerang Selatan",
              "region": "Banten",
              "coordinates": {
                "lat": -6.3227016,
                "lng": 106.7085737
              }
            },
            {
              "name": "Luuca Poris",
              "address": "RMGP+5MV, CipondohJl. Poris, RT.IndahRT.001/RW.4",
              "city": "Kota Tangerang",
              "region": "Banten",
              "coordinates": {
                "lat": -6.1761924,
                "lng": 106.6382161
              }
            },
            {
              "name": "Luuca Pamulang",
              "address": "Jl. Pamulang Permai No.1",
              "city": "Kota Tangerang Selatan",
              "region": "Banten",
              "coordinates": {
                "lat": -6.3227016,
                "lng": 106.7085737
              }
            },
            {
              "name": "Luuca Bintaro Jaya Xchange Mall",
              "address": "Mall Bintaro Jaya Xchange, Jl. Boulevard Bintaro Jaya No.C2 Level 1 Unit 402C",
              "city": "Kota Tangerang Selatan",
              "region": "Banten",
              "coordinates": {
                "lat": -6.3227016,
                "lng": 106.7085737
              }
            },
            {
              "name": "Luuca Living World Alam Sutera",
              "address": "Jl. Alam Sutera Boulevard No.10",
              "city": "Kota Tangerang Selatan",
              "region": "Banten",
              "coordinates": {
                "lat": -6.3227016,
                "lng": 106.7085737
              }
            },
            {
              "name": "Luuca Citra Raya Tanggerang",
              "address": "Ruko Melia Street Market, Jl. Citra Raya Boulevard X No.5r",
              "city": "Kabupaten Tangerang",
              "region": "Banten",
              "coordinates": {
                "lat": -6.1644013,
                "lng": 106.4679311
              }
            },
            {
              "name": "Luuca Cikupa",
              "address": "market, Blk. V, Rulo, Jl. Melia Utara Jl. Cikupa raya bouleverd No.X",
              "city": "Kabupaten Tangerang",
              "region": "Banten",
              "coordinates": {
                "lat": -6.1644013,
                "lng": 106.4679311
              }
            },
            {
              "name": "Luuca Tangcity Mall",
              "address": "Jl. Jenderal Sudirman No.1, RT.001/RW.005",
              "city": "Kota Tangerang",
              "region": "Banten",
              "coordinates": {
                "lat": -6.1761924,
                "lng": 106.6382161
              }
            }
          ]
        },
        {
          "region": "Sumatera Utara",
          "outlets": [
            {
              "name": "Luuca Plaza Medan Fair",
              "address": "Plaza Medan Fair, lantai 3",
              "city": "Kota Medan",
              "region": "Sumatera Utara",
              "coordinates": {
                "lat": 3.5894617,
                "lng": 98.6741623
              }
            },
            {
              "name": "Luuca Mall Centre Point",
              "address": "HMRJ+V29, Jl. Jawa",
              "city": "Kota Medan",
              "region": "Sumatera Utara",
              "coordinates": {
                "lat": 3.5894617,
                "lng": 98.6741623
              }
            }
          ]
        },
        {
          "region": "Jawa Tengah",
          "outlets": [
            {
              "name": "Luuca Uptown Mall BSB City Semarang",
              "address": "X84G+426, Jl. Rm. Hadisoebeno Sosro Wardoyo",
              "city": "Kota Semarang",
              "region": "Jawa Tengah",
              "coordinates": {
                "lat": -6.9903988,
                "lng": 110.4229104
              }
            },
            {
              "name": "Luuca Solo Square Mall",
              "address": "Solo Square, Jl. Slamet Riyadi No.451-455",
              "city": "Kota Surakarta",
              "region": "Jawa Tengah",
              "coordinates": {
                "lat": -7.5692489,
                "lng": 110.828448
              }
            },
            {
              "name": "Luuca Gatsu",
              "address": "Jl. Gatot Subroto No.42",
              "city": "Kota Surakarta",
              "region": "Jawa Tengah",
              "coordinates": {
                "lat": -7.5692489,
                "lng": 110.828448
              }
            },
            {
              "name": "Luuca Salatiga",
              "address": "MG94+3GW, Jl. Kalibodri",
              "city": "Kota Salatiga",
              "region": "Jawa Tengah",
              "coordinates": {
                "lat": -7.3302642,
                "lng": 110.4995353
              }
            }
          ]
        },
        {
          "region": "Bali",
          "outlets": [
            {
              "name": "Luuca Seminyak Bali",
              "address": "Jl. Sunset Road",
              "city": "Kabupaten Badung",
              "region": "Bali",
              "coordinates": {
                "lat": -8.6818011,
                "lng": 115.1650363
              }
            }
          ]
        },
        {
          "region": "Riau",
          "outlets": [
            {
              "name": "Luuca Pekanbaru",
              "address": "F97R+FHR, Jl. HR. Soebrantas",
              "city": "Kota Pekanbaru",
              "region": "Riau",
              "coordinates": {
                "lat": 0.5262455,
                "lng": 101.4515727
              }
            }
          ]
        },
        {
          "region": "Sulawesi Utara",
          "outlets": [
            {
              "name": "Luuca Bahu Mall",
              "address": "Jl. Pertokoan Bahu Mall No.S-01",
              "city": "Kota Manado",
              "region": "Sulawesi Utara",
              "coordinates": {
                "lat": 1.4900447,
                "lng": 124.8407673
              }
            }
          ]
        },
        {
          "region": "Daerah Istimewa Yogyakarta",
          "outlets": [
            {
              "name": "Luluca_ca",
              "address": "696Q+JQR",
              "city": "Kota Yogyakarta",
              "region": "Daerah Istimewa Yogyakarta",
              "coordinates": {
                "lat": -7.801349,
                "lng": 110.3647351
              }
            }
          ]
        },
        {
          "region": "Kalimantan Selatan",
          "outlets": [
            {
              "name": "Luuca Duta Mall Banjarmasin",
              "address": "MJG3+QG2, Hotel Mercure, Gadang",
              "city": "Kota Banjarmasin",
              "region": "Kalimantan Selatan",
              "coordinates": {
                "lat": -3.3187496,
                "lng": 114.5925828
              }
            }
          ]
        },
        {
          "region": "Nusa Tenggara Bar.",
          "outlets": [
            {
              "name": "Luuca Epicentrum Mall Lombok",
              "address": "Jl. Sriwijaya No.333",
              "city": "Kota Mataram",
              "region": "Nusa Tenggara Bar.",
              "coordinates": {
                "lat": -6.1751,
                "lng": 106.865
              }
            }
          ]
        },
        {
          "region": "Kepulauan Bangka Belitung",
          "outlets": [
            {
              "name": "Luuca Pangkal Pinang",
              "address": "Jl. Jendral Sudirman No.54",
              "city": "Kota Pangkal Pinang",
              "region": "Kepulauan Bangka Belitung",
              "coordinates": {
                "lat": -2.1206733,
                "lng": 106.1134604
              }
            }
          ]
        }
      ],
      "outlets": []
    },
    {
      "brandName": "Barber Smart",
      "category": "Personal Care / Barbershop",
      "website": "https://www.barbersmart.id/",
      "totalOutlets": 24,
      "outlets": [
        {
          "name": "Barbersmart Condet",
          "address": "Jl. Raya Tengah, Kramat Jati",
          "city": "Jakarta Timur",
          "coordinates": {
            "lat": -6.2892526,
            "lng": 106.8593708
          }
        },
        {
          "name": "Barbersmart Dukuh",
          "address": "Jl. Dukuh V Dalam, Dukuh",
          "city": "Jakarta Timur",
          "coordinates": {
            "lat": -6.2567,
            "lng": 106.8523
          }
        },
        {
          "name": "Barbersmart Duren Sawit",
          "address": "Jl. Swadaya Raya, Duren Sawit",
          "city": "Jakarta Timur",
          "coordinates": {
            "lat": -6.2355774,
            "lng": 106.9168206
          }
        },
        {
          "name": "Barbersmart Bintara",
          "address": "Bintara Jaya",
          "city": "Bekasi",
          "coordinates": {
            "lat": -6.2433449,
            "lng": 106.9452502
          }
        },
        {
          "name": "Barbersmart Bintara Dua",
          "address": "Komplek Departemen Dalam Negri, Duren Sawit",
          "city": "Jakarta Timur",
          "coordinates": {
            "lat": -6.2456,
            "lng": 106.9123
          }
        },
        {
          "name": "Barbersmart Lubangbuaya",
          "address": "Jl. Rw. Binong, Lubang Buaya",
          "city": "Jakarta Timur",
          "coordinates": {
            "lat": -6.3012,
            "lng": 106.9234
          }
        },
        {
          "name": "Barbersmart Pondok Kelapa",
          "address": "Jl. Kapin Raya, Pondok Kelapa",
          "city": "Jakarta Timur",
          "coordinates": {
            "lat": -6.2500219,
            "lng": 106.9297134
          }
        },
        {
          "name": "Barbersmart Cinunuk",
          "address": "Jl. Raya Cinunuk",
          "city": "Bandung",
          "coordinates": {
            "lat": -6.9370023,
            "lng": 107.7307225
          }
        },
        {
          "name": "Barbersmart Ciracas",
          "address": "Jl. Raya Centex, Ciracas",
          "city": "Jakarta Timur",
          "coordinates": {
            "lat": -6.3123,
            "lng": 106.8789
          }
        },
        {
          "name": "Barbersmart Balikpapan",
          "address": "Jl. Term., Batu Ampar",
          "city": "Balikpapan",
          "coordinates": {
            "lat": -1.2456,
            "lng": 116.8567
          }
        },
        {
          "name": "Barbersmart Cikampek",
          "address": "Jl. Perum Cikampek Baru",
          "city": "Karawang",
          "coordinates": {
            "lat": -6.4012,
            "lng": 107.4567
          }
        },
        {
          "name": "Barbersmart Pondok Bambu",
          "address": "Jalan Betung Raya, Pondok Bambu",
          "city": "Jakarta Timur",
          "coordinates": {
            "lat": -6.2364832,
            "lng": 106.9036814
          }
        },
        {
          "name": "Barbersmart Jatimakmur",
          "address": "Jl. Kemang Sari No.rt07/11, Jatimakmur",
          "city": "Bekasi",
          "coordinates": {
            "lat": -6.2789,
            "lng": 107.0012
          }
        },
        {
          "name": "Barbersmart Pejaten",
          "address": "Jalan Amil No. 6, Pejaten",
          "city": "Jakarta Selatan",
          "coordinates": {
            "lat": -6.2738415,
            "lng": 106.8314002
          }
        },
        {
          "name": "Barbersmart Jagakarsa",
          "address": "Jalan Raya Jagakarsa, RT.2/RW.5, Jagakarsa",
          "city": "Jakarta Selatan",
          "coordinates": {
            "lat": -6.3355277,
            "lng": 106.8349273
          }
        },
        {
          "name": "Barbersmart Cinere",
          "address": "Jalan Raya Gandul Cinere (Tower A Unit GF18)",
          "city": "Depok",
          "coordinates": {
            "lat": -6.3456,
            "lng": 106.7789
          }
        },
        {
          "name": "Barbersmart Gunungsindur",
          "address": "Perumahan Bukit Serpong Indah, Gunungsindur",
          "city": "Bogor",
          "coordinates": {
            "lat": -6.3567,
            "lng": 106.6789
          }
        },
        {
          "name": "Barbersmart Cimanggis",
          "address": "Cimanggis",
          "city": "Depok",
          "coordinates": {
            "lat": -6.4163314,
            "lng": 106.8977431
          }
        },
        {
          "name": "Barbersmart Pekayon",
          "address": "Jl. Kalisari Pekayon",
          "city": "Bekasi",
          "coordinates": {
            "lat": -6.2678,
            "lng": 106.9789
          }
        },
        {
          "name": "Barbersmart Cipondoh",
          "address": "Cipondoh",
          "city": "Tangerang",
          "coordinates": {
            "lat": -6.1835184,
            "lng": 106.6888428
          }
        },
        {
          "name": "Barbersmart Taman Cibodas",
          "address": "Taman Cibodas",
          "city": "Tangerang",
          "coordinates": {
            "lat": -6.1741653,
            "lng": 106.6008449
          }
        },
        {
          "name": "Barbersmart Serang",
          "address": "Jl. Raya Puri Anggrek",
          "city": "Serang",
          "coordinates": {
            "lat": -6.1234,
            "lng": 106.1567
          }
        },
        {
          "name": "Barbersmart Bekasi Utara",
          "address": "Jl. Kali Abang Bungur, Medan Satria",
          "city": "Bekasi",
          "coordinates": {
            "lat": -6.1789,
            "lng": 107.0234
          }
        },
        {
          "name": "Barbersmart Kencana Residence",
          "address": "Kencana Residence",
          "city": "Jakarta",
          "coordinates": {
            "lat": -6.259049,
            "lng": 106.7808047
          }
        }
      ]
    },
    {
      "brandName": "UMC UCMAS Indonesia",
      "category": "Education / Mental Arithmetic",
      "website": "https://www.ucmasindonesia.com/",
      "totalOutlets": 35,
      "regions": [
        {
          "region": "DKI Jakarta",
          "outlets": [
            {
              "name": "Kantor Pusat UCMAS Indonesia",
              "address": "Rukan Mediterania, Jl. Boulevard Gading Raya Blok AA No.26, Kelapa Gading",
              "city": "Jakarta Utara",
              "coordinates": {
                "lat": -6.1567,
                "lng": 106.8956
              }
            },
            {
              "name": "UCMAS Little Ello Park View",
              "address": "Ruko Park View ZC 1 No 22, Kelapa Gading Barat",
              "city": "Jakarta Utara",
              "coordinates": {
                "lat": -6.1678,
                "lng": 106.8789
              }
            },
            {
              "name": "UCMAS Kelapa Gading",
              "address": "Mediterania Kelapa Gading",
              "city": "Jakarta Utara",
              "coordinates": {
                "lat": -6.1626788,
                "lng": 106.8972448
              }
            },
            {
              "name": "UCMAS Griya Inti Sentosa",
              "address": "Jl. Griya Agung Blok O No. 91 Sunter Agung",
              "city": "Jakarta Utara",
              "coordinates": {
                "lat": -6.1345,
                "lng": 106.8678
              }
            },
            {
              "name": "UCMAS Pembangunan",
              "address": "Pembangunan III Dalam No. 3 Petojo Utara",
              "city": "Jakarta Pusat",
              "coordinates": {
                "lat": -6.1625412,
                "lng": 106.8155154
              }
            },
            {
              "name": "UCMAS Cempaka Putih",
              "address": "Jl. Jenderal A Yani Kav. 68 Cempaka Putih",
              "city": "Jakarta Pusat",
              "coordinates": {
                "lat": -6.1789,
                "lng": 106.8678
              }
            },
            {
              "name": "UCMAS Taman Duta Mas",
              "address": "Komp. Taman Duta Mas B 9 / 33 Jelambar",
              "city": "Jakarta Barat",
              "coordinates": {
                "lat": -6.1456,
                "lng": 106.7789
              }
            },
            {
              "name": "UCMAS Pasar Minggu",
              "address": "Jl. Pasar Minggu",
              "city": "Jakarta Selatan",
              "coordinates": {
                "lat": -6.2743382,
                "lng": 106.816502
              }
            },
            {
              "name": "UCMAS Cipinang",
              "address": "Jl. Cipinang Baru Raya",
              "city": "Jakarta Timur",
              "coordinates": {
                "lat": -6.2234,
                "lng": 106.8789
              }
            }
          ]
        },
        {
          "region": "Jawa Timur",
          "outlets": [
            {
              "name": "UCMAS Smart Kidz Ponorogo",
              "address": "Jl. Diponegoro No.17",
              "city": "Ponorogo",
              "coordinates": {
                "lat": -7.8678,
                "lng": 111.4612
              }
            },
            {
              "name": "UMC Dukuh Kupang Surabaya",
              "address": "Jl. Raya Dukuh Kupang Barat No. 9",
              "city": "Surabaya",
              "coordinates": {
                "lat": -7.2789,
                "lng": 112.7234
              }
            },
            {
              "name": "UMC Panjang Jiwo Surabaya",
              "address": "Jln. Raya Panjang Jiwo Permai No.26",
              "city": "Surabaya",
              "coordinates": {
                "lat": -7.3012,
                "lng": 112.7567
              }
            },
            {
              "name": "UMC HR Muhammad Surabaya",
              "address": "Ruko HR. Muhammad Square A-22",
              "city": "Surabaya",
              "coordinates": {
                "lat": -7.2912,
                "lng": 112.6789
              }
            },
            {
              "name": "UMC Jemur Andayani Surabaya",
              "address": "Jl. Jemur Andayani XXII No.20",
              "city": "Surabaya",
              "coordinates": {
                "lat": -7.3123,
                "lng": 112.7345
              }
            },
            {
              "name": "UCMAS Malang",
              "address": "Jl. Ananas 29",
              "city": "Malang",
              "coordinates": {
                "lat": -7.9789,
                "lng": 112.6345
              }
            },
            {
              "name": "UCMAS Tuban",
              "address": "Jl. M. Sudiro 46",
              "city": "Tuban",
              "coordinates": {
                "lat": -6.8989,
                "lng": 112.0456
              }
            },
            {
              "name": "UCMAS Sidoarjo",
              "address": "Jl. Raya Sidoarjo",
              "city": "Sidoarjo",
              "coordinates": {
                "lat": -7.3633612,
                "lng": 112.7033248
              }
            },
            {
              "name": "UCMAS Mojokerto",
              "address": "Jl. Raya Mojokerto",
              "city": "Mojokerto",
              "coordinates": {
                "lat": -7.7355754,
                "lng": 112.5287641
              }
            },
            {
              "name": "UCMAS Kediri",
              "address": "Jl. Raya Kediri",
              "city": "Kediri",
              "coordinates": {
                "lat": -7.6029744,
                "lng": 112.1110066
              }
            }
          ]
        },
        {
          "region": "Jawa Tengah",
          "outlets": [
            {
              "name": "UCMAS Wonosobo",
              "address": "Jl. Ahmad Yani No. 136",
              "city": "Wonosobo",
              "coordinates": {
                "lat": -7.3567,
                "lng": 109.9012
              }
            },
            {
              "name": "UCMAS Banjarnegara",
              "address": "Jl. Letjend Suprapto 60 A",
              "city": "Banjarnegara",
              "coordinates": {
                "lat": -7.3978,
                "lng": 109.6934
              }
            }
          ]
        },
        {
          "region": "Jawa Barat",
          "outlets": [
            {
              "name": "UCMAS Bekasi",
              "address": "Jl. Raya Bekasi",
              "city": "Bekasi",
              "coordinates": {
                "lat": -6.2570914,
                "lng": 106.9664839
              }
            },
            {
              "name": "UCMAS Bandung",
              "address": "Jl. Raya Bandung",
              "city": "Bandung",
              "coordinates": {
                "lat": -6.914691,
                "lng": 107.6473545
              }
            },
            {
              "name": "UCMAS Bogor",
              "address": "Jl. Raya Bogor",
              "city": "Bogor",
              "coordinates": {
                "lat": -6.4911678,
                "lng": 106.8793384
              }
            },
            {
              "name": "UCMAS Depok",
              "address": "Jl. Margonda Raya",
              "city": "Depok",
              "coordinates": {
                "lat": -6.3889649,
                "lng": 106.8262028
              }
            }
          ]
        },
        {
          "region": "Bali",
          "outlets": [
            {
              "name": "UCMAS Denpasar",
              "address": "Jl. Raya Denpasar",
              "city": "Denpasar",
              "coordinates": {
                "lat": -8.6937615,
                "lng": 115.1978167
              }
            },
            {
              "name": "UCMAS Sanur",
              "address": "Jl. Raya Sanur",
              "city": "Denpasar",
              "coordinates": {
                "lat": -8.6670761,
                "lng": 115.2562801
              }
            },
            {
              "name": "UCMAS Kuta",
              "address": "Jl. Raya Kuta",
              "city": "Badung",
              "coordinates": {
                "lat": -8.7054129,
                "lng": 115.1817416
              }
            },
            {
              "name": "UCMAS Ubud",
              "address": "Jl. Raya Ubud",
              "city": "Gianyar",
              "coordinates": {
                "lat": -8.5091365,
                "lng": 115.2705733
              }
            },
            {
              "name": "UCMAS Seminyak",
              "address": "Jl. Raya Seminyak",
              "city": "Badung",
              "coordinates": {
                "lat": -8.6862423,
                "lng": 115.1669626
              }
            },
            {
              "name": "UCMAS Tabanan",
              "address": "Jl. Raya Tabanan",
              "city": "Tabanan",
              "coordinates": {
                "lat": -8.6102042,
                "lng": 115.1128238
              }
            },
            {
              "name": "UCMAS Gianyar",
              "address": "Jl. Raya Gianyar",
              "city": "Gianyar",
              "coordinates": {
                "lat": -8.5091365,
                "lng": 115.2705733
              }
            }
          ]
        },
        {
          "region": "Banten",
          "outlets": [
            {
              "name": "UCMAS Tangerang",
              "address": "Jl. Raya Tangerang",
              "city": "Tangerang",
              "coordinates": {
                "lat": -6.2941049,
                "lng": 106.6853862
              }
            }
          ]
        },
        {
          "region": "Sulawesi",
          "outlets": [
            {
              "name": "UCMAS Makassar",
              "address": "Jl. Raya Makassar",
              "city": "Makassar",
              "coordinates": {
                "lat": -5.154567,
                "lng": 119.4390737
              }
            },
            {
              "name": "UCMAS Manado",
              "address": "Jl. Raya Manado",
              "city": "Manado",
              "coordinates": {
                "lat": 1.5602325,
                "lng": 124.8757343
              }
            },
            {
              "name": "UCMAS Kendari",
              "address": "Jl. Raya Kendari",
              "city": "Kendari",
              "coordinates": {
                "lat": -4.0223504,
                "lng": 122.5867009
              }
            }
          ]
        }
      ]
    },
    {
      "brandName": "Laundry Klin",
      "category": "Laundry Services",
      "website": "https://www.laundryklin.com/outlet",
      "totalOutlets": 235,
      "regions": [
        {
          "region": "DKI Jakarta",
          "outlets": [
            {
              "name": "LaundryKlin Palem",
              "address": "Apartemen Paradise Mansion, Jl. Satu Maret No.9, Pegadungan, Kalideres, Jakarta Barat",
              "city": "Jakarta Barat",
              "coordinates": {
                "lat": -6.1234,
                "lng": 106.7012
              }
            },
            {
              "name": "LaundryKlin Green Bay Pluit",
              "address": "Apartment Green Bay Pluit",
              "city": "Jakarta Utara",
              "coordinates": {
                "lat": -6.1123,
                "lng": 106.7889
              }
            },
            {
              "name": "LaundryKlin Penggilingan",
              "address": "Jl Amalia no 76 RT 01 RW 06, Penggilingan, Cakung",
              "city": "Jakarta Timur",
              "coordinates": {
                "lat": -6.2234,
                "lng": 106.9345
              }
            },
            {
              "name": "LaundryKlin Kemayoran",
              "address": "Jl. Kemayoran Timur No.47, Kemayoran",
              "city": "Jakarta Pusat",
              "coordinates": {
                "lat": -6.1567,
                "lng": 106.8567
              }
            },
            {
              "name": "LaundryKlin Apartemen Gardenia",
              "address": "Apartemen Gardenia Boulevard, Jl. Warung Jati Barat No 21b, Pasar Minggu",
              "city": "Jakarta Selatan",
              "coordinates": {
                "lat": -6.2789,
                "lng": 106.8456
              }
            },
            {
              "name": "LaundryKlin Gading Elok",
              "address": "Jl gading elok utara no 38A, Kelapa Gading Timur",
              "city": "Jakarta Utara",
              "coordinates": {
                "lat": -6.1456,
                "lng": 106.9012
              }
            },
            {
              "name": "LaundryKlin Mediterania Kelapa Gading",
              "address": "Jl. Boulevard Gading Raya Blok Aa No.17, Kelapa Gading",
              "city": "Jakarta Utara",
              "coordinates": {
                "lat": -6.1567,
                "lng": 106.8945
              }
            },
            {
              "name": "LaundryKlin Point Rasuna",
              "address": "Apartemen Taman Rasuna tower 7 lt. 4",
              "city": "Jakarta Selatan",
              "coordinates": {
                "lat": -6.2234,
                "lng": 106.8345
              }
            },
            {
              "name": "LaundryKlin Biak Gambir",
              "address": "Jl. Biak No 29 A, Cideng, Gambir",
              "city": "Jakarta Pusat",
              "coordinates": {
                "lat": -6.1678,
                "lng": 106.8123
              }
            },
            {
              "name": "LaundryKlin Cipinang Besar",
              "address": "Jl. Cipinang Besar No.21, Jatinegara",
              "city": "Jakarta Timur",
              "coordinates": {
                "lat": -6.2177638,
                "lng": 106.883715
              }
            },
            {
              "name": "LaundryKlin Menteng",
              "address": "Jl. Sukabumi no 31, Menteng",
              "city": "Jakarta Pusat",
              "coordinates": {
                "lat": -6.1934,
                "lng": 106.8345
              }
            },
            {
              "name": "LaundryKlin Pulo Gebang",
              "address": "Pulo Gebang Permai Blok 10/20",
              "city": "Jakarta Timur",
              "coordinates": {
                "lat": -6.2345,
                "lng": 106.9456
              }
            },
            {
              "name": "LaundryKlin Kota Tua",
              "address": "Roa malaka utara no 15, Tambora",
              "city": "Jakarta Barat",
              "coordinates": {
                "lat": -6.1360254,
                "lng": 106.801926
              }
            },
            {
              "name": "LaundryKlin Pulo Asem",
              "address": "Jl. Pulo Asem Raya No. 8, Pulo Gadung",
              "city": "Jakarta Timur",
              "coordinates": {
                "lat": -6.1789,
                "lng": 106.8945
              }
            },
            {
              "name": "LaundryKlin Jatinegara",
              "address": "Jl. Bekasi Timur I No.11 A, Jatinegara",
              "city": "Jakarta Timur",
              "coordinates": {
                "lat": -6.2145,
                "lng": 106.8678
              }
            },
            {
              "name": "LaundryKlin Mahoni",
              "address": "Jl Semangka No 46, Koja",
              "city": "Jakarta Utara",
              "coordinates": {
                "lat": -6.1234,
                "lng": 106.9012
              }
            },
            {
              "name": "LaundryKlin Cleon Park",
              "address": "Ruko Cleon Park No.26, Jakarta Garden City, Cakung",
              "city": "Jakarta Timur",
              "coordinates": {
                "lat": -6.2234,
                "lng": 106.9567
              }
            },
            {
              "name": "LaundryKlin Cempaka Putih",
              "address": "Jl. Cempaka Putih Tengah 2 no.40",
              "city": "Jakarta Pusat",
              "coordinates": {
                "lat": -6.1789,
                "lng": 106.8678
              }
            },
            {
              "name": "LaundryKlin Pondok Indah",
              "address": "Jl. Pinang Nikel I Blok Pq No.28, Kebayoran Lama",
              "city": "Jakarta Selatan",
              "coordinates": {
                "lat": -6.2789,
                "lng": 106.7834
              }
            },
            {
              "name": "LaundryKlin Sentra Timur",
              "address": "Apartemen Sentra Timur Residence, Pulo Gebang",
              "city": "Jakarta Timur",
              "coordinates": {
                "lat": -6.2256,
                "lng": 106.9345
              }
            },
            {
              "name": "LaundryKlin Tebet Utara",
              "address": "Jl. Tebet Utara Dalam Raya No.29",
              "city": "Jakarta Selatan",
              "coordinates": {
                "lat": -6.2345,
                "lng": 106.8512
              }
            },
            {
              "name": "LaundryKlin JGC",
              "address": "Ruko Savoy B2/2 Jakarta Garden City, Cakung",
              "city": "Jakarta Timur",
              "coordinates": {
                "lat": -6.2345,
                "lng": 106.9567
              }
            },
            {
              "name": "LaundryKlin Tebet Barat",
              "address": "Jl. Tebet Barat Raya No.18",
              "city": "Jakarta Selatan",
              "coordinates": {
                "lat": -6.2267,
                "lng": 106.8456
              }
            },
            {
              "name": "LaundryKlin Pondok Kelapa",
              "address": "Jl. Pd. Kelapa Raya No.Blok 14/2, Duren Sawit",
              "city": "Jakarta Timur",
              "coordinates": {
                "lat": -6.2567,
                "lng": 106.9234
              }
            },
            {
              "name": "LaundryKlin Lebak Bulus",
              "address": "Jalan Lebak Bulus III No. 7, Cilandak",
              "city": "Jakarta Selatan",
              "coordinates": {
                "lat": -6.3025555,
                "lng": 106.7874833
              }
            },
            {
              "name": "LaundryKlin Mampang",
              "address": "Jl. Mampang Prapatan VIII No.6a",
              "city": "Jakarta Selatan",
              "coordinates": {
                "lat": -6.2456,
                "lng": 106.8234
              }
            },
            {
              "name": "LaundryKlin Rawajati",
              "address": "Jl. Rawajati Timur Blok K, nomor 19 Kalibata",
              "city": "Jakarta Selatan",
              "coordinates": {
                "lat": -6.2567,
                "lng": 106.8567
              }
            },
            {
              "name": "LaundryKlin Pademangan",
              "address": "Jl Pademangan 3, GG 22 NO 312",
              "city": "Jakarta Utara",
              "coordinates": {
                "lat": -6.1234,
                "lng": 106.8456
              }
            },
            {
              "name": "LaundryKlin Joglo Raya",
              "address": "Jl. Joglo Raya, depan perumahan Kopkamtib",
              "city": "Jakarta Barat",
              "coordinates": {
                "lat": -6.2012,
                "lng": 106.7234
              }
            },
            {
              "name": "LaundryKlin Citra Garden 7",
              "address": "Jl. Citra Garden VII Blok E 3 no 8, Kalideres",
              "city": "Jakarta Barat",
              "coordinates": {
                "lat": -6.1345,
                "lng": 106.6978
              }
            },
            {
              "name": "LaundryKlin Sunter Elok",
              "address": "Sunter Elok Blok C15 Rt 12 Rw 02",
              "city": "Jakarta Utara",
              "coordinates": {
                "lat": -6.1345,
                "lng": 106.8789
              }
            },
            {
              "name": "LaundryKlin Kalibata",
              "address": "Apartment Kalibata City, Tower Cendana",
              "city": "Jakarta Selatan",
              "coordinates": {
                "lat": -6.2567,
                "lng": 106.8567
              }
            },
            {
              "name": "LaundryKlin Kartini",
              "address": "Jalan Kartini IV, No. 25, Sawah Besar",
              "city": "Jakarta Pusat",
              "coordinates": {
                "lat": -6.155069,
                "lng": 106.8341917
              }
            },
            {
              "name": "LaundryKlin Perdatam",
              "address": "Jl. Pancoran Timur Raya, No. 35, Pancoran",
              "city": "Jakarta Selatan",
              "coordinates": {
                "lat": -6.2456,
                "lng": 106.8456
              }
            },
            {
              "name": "LaundryKlin Palmerah",
              "address": "Jalan KH Taisir Nomor 7B Palmerah",
              "city": "Jakarta Barat",
              "coordinates": {
                "lat": -6.1889,
                "lng": 106.7889
              }
            },
            {
              "name": "LaundryKlin Karang Tengah",
              "address": "Jl. Karang Tengah Raya No.46, Lebak Bulus",
              "city": "Jakarta Selatan",
              "coordinates": {
                "lat": -6.3056059,
                "lng": 106.7818908
              }
            },
            {
              "name": "LaundryKlin Karbela",
              "address": "Jalan karbela barat no.9, Setiabudi",
              "city": "Jakarta Selatan",
              "coordinates": {
                "lat": -6.2123,
                "lng": 106.8234
              }
            },
            {
              "name": "LaundryKlin Manhattan MOI",
              "address": "Mall of Indonesia, Blok M no 10, Kelapa Gading",
              "city": "Jakarta Utara",
              "coordinates": {
                "lat": -6.1456,
                "lng": 106.8912
              }
            },
            {
              "name": "LaundryKlin Metro",
              "address": "Apartment Metro, Jalan Metro Kencana V",
              "city": "Jakarta Utara",
              "coordinates": {
                "lat": -6.1567,
                "lng": 106.8789
              }
            },
            {
              "name": "LaundryKlin Pasar Baru",
              "address": "Jl. Gereja Ayam No 15A, Pasar Baru",
              "city": "Jakarta Pusat",
              "coordinates": {
                "lat": -6.1678,
                "lng": 106.8345
              }
            },
            {
              "name": "LaundryKlin Pangeran Jayakarta",
              "address": "Jalan Pangeran Jayakarta No. 4C, Mangga Dua Selatan",
              "city": "Jakarta Pusat",
              "coordinates": {
                "lat": -6.144116,
                "lng": 106.8313861
              }
            },
            {
              "name": "LaundryKlin Ciracas",
              "address": "DevTroy Mansion Jalan Raya Ciracas No. 9A",
              "city": "Jakarta Timur",
              "coordinates": {
                "lat": -6.3012,
                "lng": 106.8789
              }
            },
            {
              "name": "LaundryKlin Gajah Mada",
              "address": "Jalan Thalib 1 no 33C, Gajah Mada",
              "city": "Jakarta Pusat",
              "coordinates": {
                "lat": -6.1567,
                "lng": 106.8123
              }
            },
            {
              "name": "LaundryKlin Syahdan",
              "address": "Syahdan, Rawa Belong 2B No.27-28, Palmerah",
              "city": "Jakarta Barat",
              "coordinates": {
                "lat": -6.1889,
                "lng": 106.7867
              }
            },
            {
              "name": "LaundryKlin Milano",
              "address": "Ruko Royal Palm Blok A 3, Kalideres",
              "city": "Jakarta Barat",
              "coordinates": {
                "lat": -6.1234,
                "lng": 106.6978
              }
            }
          ]
        },
        {
          "region": "Jawa Barat",
          "outlets": [
            {
              "name": "LaundryKlin Mekarsari Bekasi",
              "address": "Jl. Mekar Sari No.34, Bekasi Timur",
              "city": "Bekasi",
              "coordinates": {
                "lat": -6.2345,
                "lng": 107.0012
              }
            },
            {
              "name": "LaundryKlin Siliwangi Tasikmalaya",
              "address": "Jl. Siliwangi No.14, Tasikmalaya",
              "city": "Tasikmalaya",
              "coordinates": {
                "lat": -7.3471476,
                "lng": 108.230172
              }
            },
            {
              "name": "LaundryKlin Buah Batu",
              "address": "Jl. RH Hasan Saputra Raya No 17, Bandung",
              "city": "Bandung",
              "coordinates": {
                "lat": -6.9345,
                "lng": 107.6234
              }
            },
            {
              "name": "LaundryKlin Perwira Bekasi",
              "address": "Jl KH Muchtar Tabrani, Bekasi Utara",
              "city": "Bekasi",
              "coordinates": {
                "lat": -6.1789,
                "lng": 107.0123
              }
            },
            {
              "name": "LaundryKlin Kembar BDG",
              "address": "Jl. Kembar VIII No.53, Regol, Bandung",
              "city": "Bandung",
              "coordinates": {
                "lat": -6.9234,
                "lng": 107.6012
              }
            },
            {
              "name": "LaundryKlin Riung Bandung",
              "address": "Jl Riung Gede Permai block a no 10, Gedebage",
              "city": "Bandung",
              "coordinates": {
                "lat": -6.9456,
                "lng": 107.6789
              }
            },
            {
              "name": "LaundryKlin Mutiara Gading City",
              "address": "Komplek Mutiara Gading City Blok R-11, Tarumajaya",
              "city": "Bekasi",
              "coordinates": {
                "lat": -6.1234,
                "lng": 106.9789
              }
            },
            {
              "name": "LaundryKlin Cicadas",
              "address": "Jl A. Yani No 827, Kiaracondong, Bandung",
              "city": "Bandung",
              "coordinates": {
                "lat": -6.9123,
                "lng": 107.6345
              }
            },
            {
              "name": "LaundryKlin Rancaekek",
              "address": "Jln. Nusa Indah Raya no.105, Rancaekek",
              "city": "Bandung",
              "coordinates": {
                "lat": -6.9567,
                "lng": 107.7534
              }
            },
            {
              "name": "LaundryKlin Cemara Bandung",
              "address": "Jalan Cemara No 50, Pasteur, Sukajadi",
              "city": "Bandung",
              "coordinates": {
                "lat": -6.8934,
                "lng": 107.5789
              }
            },
            {
              "name": "LaundryKlin Gegerkalong",
              "address": "Jl Gegerkalong Girang Baru no 2C",
              "city": "Bandung",
              "coordinates": {
                "lat": -6.8734,
                "lng": 107.5934
              }
            },
            {
              "name": "LaundryKlin Cibadak",
              "address": "Jl. Cibadak No.207, Astanaanyar, Bandung",
              "city": "Bandung",
              "coordinates": {
                "lat": -6.9234,
                "lng": 107.5789
              }
            },
            {
              "name": "LaundryKlin Setiabudi Bandung",
              "address": "Jl. Setiabudi No. 280, Ledeng",
              "city": "Bandung",
              "coordinates": {
                "lat": -6.8634,
                "lng": 107.6012
              }
            },
            {
              "name": "LaundryKlin Kawaluyaan",
              "address": "Jl. Cidurian Utara No.76A, Kiaracondong",
              "city": "Bandung",
              "coordinates": {
                "lat": -6.9234,
                "lng": 107.6456
              }
            },
            {
              "name": "LaundryKlin Sarimanah",
              "address": "Jl. Sarimanah Raya No. 31, Sarijadi",
              "city": "Bandung",
              "coordinates": {
                "lat": -6.8789,
                "lng": 107.5678
              }
            },
            {
              "name": "LaundryKlin Gateway Pasteur",
              "address": "Apartment Gateway Pasteur, Jl. Gunung Batu 203",
              "city": "Bandung",
              "coordinates": {
                "lat": -6.8934,
                "lng": 107.5834
              }
            },
            {
              "name": "LaundryKlin Margahayu",
              "address": "Jl. Jupiter Tengah No.1A, Buahbatu",
              "city": "Bandung",
              "coordinates": {
                "lat": -6.9456,
                "lng": 107.6345
              }
            },
            {
              "name": "LaundryKlin Dipatiukur",
              "address": "Jl. Dipatiukur No. 92, Coblong",
              "city": "Bandung",
              "coordinates": {
                "lat": -6.8934,
                "lng": 107.6123
              }
            },
            {
              "name": "LaundryKlin Mekarwangi",
              "address": "Jl. Mekarpuspita No. 39 B, Cibaduyut",
              "city": "Bandung",
              "coordinates": {
                "lat": -6.9567,
                "lng": 107.5789
              }
            },
            {
              "name": "LaundryKlin Cikutra",
              "address": "Jl. Cibeunying Kolot No. 9, Cigadung",
              "city": "Bandung",
              "coordinates": {
                "lat": -6.8856,
                "lng": 107.6234
              }
            },
            {
              "name": "LaundryKlin Antapani",
              "address": "Jalan Parakansaat No. 9",
              "city": "Bandung",
              "coordinates": {
                "lat": -6.9123,
                "lng": 107.6567
              }
            },
            {
              "name": "LaundryKlin Batununggal",
              "address": "Jalan Batununggal IV No. 35",
              "city": "Bandung",
              "coordinates": {
                "lat": -6.9345,
                "lng": 107.6234
              }
            },
            {
              "name": "LaundryKlin Cihampelas",
              "address": "Jalan Cihampelas No. 193 A, Coblong",
              "city": "Bandung",
              "coordinates": {
                "lat": -6.8934,
                "lng": 107.6012
              }
            },
            {
              "name": "LaundryKlin Buana Peta",
              "address": "Jalan H.M Basori No. 32, Kopo, Bojongloa Kaler",
              "city": "Bandung",
              "coordinates": {
                "lat": -6.9456,
                "lng": 107.5789
              }
            },
            {
              "name": "LaundryKlin Kopo",
              "address": "Jalan Taman Kopo Indah 1 Blok F No. 19",
              "city": "Bandung",
              "coordinates": {
                "lat": -6.9567,
                "lng": 107.5678
              }
            },
            {
              "name": "LaundryKlin Gagak",
              "address": "Jalan Gagak No. 50",
              "city": "Bandung",
              "coordinates": {
                "lat": -6.8938221,
                "lng": 107.6277498
              }
            },
            {
              "name": "LaundryKlin PVJ",
              "address": "Paris Van Java Mall",
              "city": "Bandung",
              "coordinates": {
                "lat": -6.8890732,
                "lng": 107.5960928
              }
            },
            {
              "name": "LaundryKlin Sukajadi",
              "address": "Jalan Sukagalih No. 45, Sukajadi",
              "city": "Bandung",
              "coordinates": {
                "lat": -6.8787028,
                "lng": 107.5853125
              }
            },
            {
              "name": "LaundryKlin Terusan Buah Batu",
              "address": "Jl. Terusan Buah Batu No.300, Bandung Kidul",
              "city": "Bandung",
              "coordinates": {
                "lat": -6.9567,
                "lng": 107.6345
              }
            },
            {
              "name": "LaundryKlin Sarijadi",
              "address": "Jl. Sarijadi Raya No. 91",
              "city": "Bandung",
              "coordinates": {
                "lat": -6.8789,
                "lng": 107.5734
              }
            },
            {
              "name": "LaundryKlin Cijagra",
              "address": "Jalan Cijagra No. 69",
              "city": "Bandung",
              "coordinates": {
                "lat": -6.944733,
                "lng": 107.626977
              }
            },
            {
              "name": "LaundryKlin Segara City",
              "address": "Ruko Galea RSC 2 no 12, Tarumajaya",
              "city": "Bekasi",
              "coordinates": {
                "lat": -6.1123,
                "lng": 106.9678
              }
            },
            {
              "name": "LaundryKlin Jatiwarna",
              "address": "Jln Raya Hankam No.7, Pondok Melati",
              "city": "Bekasi",
              "coordinates": {
                "lat": -6.3012,
                "lng": 106.9234
              }
            },
            {
              "name": "LaundryKlin Arana",
              "address": "Ruko Arana 1x3 No 19, Tarumajaya",
              "city": "Bekasi",
              "coordinates": {
                "lat": -6.1234,
                "lng": 106.9789
              }
            },
            {
              "name": "LaundryKlin Harapan Indah",
              "address": "Ruko Duta Bumi Blok D9/03, Kota Harapan Indah",
              "city": "Bekasi",
              "coordinates": {
                "lat": -6.1567,
                "lng": 107.0012
              }
            },
            {
              "name": "LaundryKlin Hankam Raya",
              "address": "Jl. Raya Hankam No.320, Pondok Melati",
              "city": "Bekasi",
              "coordinates": {
                "lat": -6.2789,
                "lng": 106.9456
              }
            },
            {
              "name": "LaundryKlin Gardenia Utara",
              "address": "Jl. Gardenia Utara BR 1 No.8, Grand Galaxy City",
              "city": "Bekasi",
              "coordinates": {
                "lat": -6.2567,
                "lng": 106.9678
              }
            },
            {
              "name": "LaundryKlin Matahari",
              "address": "Jl. Matahari Raya No 1 Blok 417, Jakasetia",
              "city": "Bekasi",
              "coordinates": {
                "lat": -6.2456,
                "lng": 106.9567
              }
            },
            {
              "name": "LaundryKlin Kranggan",
              "address": "Jalan Sawo Raya, Bekasi",
              "city": "Bekasi",
              "coordinates": {
                "lat": -6.2150883,
                "lng": 106.9667698
              }
            },
            {
              "name": "LaundryKlin Lagoon Avenue",
              "address": "Jl. Raya Candrabraga, Pekayon Jaya, Bekasi Selatan",
              "city": "Bekasi",
              "coordinates": {
                "lat": -6.2678,
                "lng": 106.9789
              }
            },
            {
              "name": "LaundryKlin Galaxy",
              "address": "Ruko Sporadis BD 123 C, Grand Galaxy Boulevard",
              "city": "Bekasi",
              "coordinates": {
                "lat": -6.2567,
                "lng": 106.9567
              }
            },
            {
              "name": "LaundryKlin Harvest",
              "address": "Ruko Orchid Harvest City, Cikarageman",
              "city": "Bekasi",
              "coordinates": {
                "lat": -6.3818778,
                "lng": 107.0243724
              }
            },
            {
              "name": "LaundryKlin Bintara",
              "address": "Jalan Bintara 4, No. 14, Bekasi Barat",
              "city": "Bekasi",
              "coordinates": {
                "lat": -6.2287069,
                "lng": 106.9543571
              }
            },
            {
              "name": "LaundryKlin CASela Depok",
              "address": "Jl. Cagar Alam Sel. No.32A, Pancoran Mas",
              "city": "Depok",
              "coordinates": {
                "lat": -6.3789,
                "lng": 106.8234
              }
            },
            {
              "name": "LaundryKlin Pesona Depok",
              "address": "Jl. Margonda Raya No.100, Beji",
              "city": "Depok",
              "coordinates": {
                "lat": -6.3721,
                "lng": 106.8312
              }
            },
            {
              "name": "LaundryKlin Beji",
              "address": "Jl. Kh. M. Usman no 183 D, Beji",
              "city": "Depok",
              "coordinates": {
                "lat": -6.3678,
                "lng": 106.8256
              }
            },
            {
              "name": "LaundryKlin Depok",
              "address": "Jalan Merdeka No 3, Sukmajaya",
              "city": "Depok",
              "coordinates": {
                "lat": -6.3856,
                "lng": 106.8345
              }
            },
            {
              "name": "LaundryKlin Wahana Jatiranggon",
              "address": "Jalan Wahana Raya Blok B2, Jatiranggon",
              "city": "Depok",
              "coordinates": {
                "lat": -6.3212,
                "lng": 106.9012
              }
            },
            {
              "name": "LaundryKlin Margonda Shoes",
              "address": "Jl. Margonda Raya No.475, Pondok Cina",
              "city": "Depok",
              "coordinates": {
                "lat": -6.3678,
                "lng": 106.8289
              }
            },
            {
              "name": "LaundryKlin Karawang",
              "address": "Jl. HS.Ronggo Waluyo, Telukjambe Timur",
              "city": "Karawang",
              "coordinates": {
                "lat": -6.3234,
                "lng": 107.3012
              }
            },
            {
              "name": "LaundryKlin Subang",
              "address": "Perumahan Bumi Pagaden Permai 2",
              "city": "Subang",
              "coordinates": {
                "lat": -6.5678,
                "lng": 107.7567
              }
            },
            {
              "name": "LaundryKlin Kebon Kopi Cimahi",
              "address": "Jl. Kebon Kopi No.3 A, Cibeureum, Cimahi",
              "city": "Cimahi",
              "coordinates": {
                "lat": -6.8934,
                "lng": 107.5234
              }
            },
            {
              "name": "LaundryKlin Cimahi",
              "address": "Jl. Moh. K. Wiganda Sasmita No.002",
              "city": "Cimahi",
              "coordinates": {
                "lat": -6.8789,
                "lng": 107.5345
              }
            },
            {
              "name": "LaundryKlin Bogor",
              "address": "Jl. Taman Cimanggu Raya, Tanah Sareal",
              "city": "Bogor",
              "coordinates": {
                "lat": -6.5789,
                "lng": 106.7856
              }
            },
            {
              "name": "LaundryKlin Cibinong",
              "address": "Jl Pahlawan Sabeki No.105 A, Bojong Gede",
              "city": "Bogor",
              "coordinates": {
                "lat": -6.4678,
                "lng": 106.8234
              }
            },
            {
              "name": "LaundryKlin SSIW Diklat",
              "address": "Jl. Pusdik Reskrim Polri, Cisarua",
              "city": "Bogor",
              "coordinates": {
                "lat": -6.6567,
                "lng": 106.9234
              }
            },
            {
              "name": "LaundryKlin Tajur",
              "address": "Jl. Raya Tajur No.58, Bogor Selatan",
              "city": "Bogor",
              "coordinates": {
                "lat": -6.6234,
                "lng": 106.8012
              }
            },
            {
              "name": "LaundryKlin Sentul City",
              "address": "Pasar Bersih Sentul City Ruko Blok R No. H1",
              "city": "Bogor",
              "coordinates": {
                "lat": -6.5789,
                "lng": 106.8678
              }
            },
            {
              "name": "LaundryKlin Cibubur Boulevard",
              "address": "Perumahan Cibubur Country Ruko RBOJ 38, Gunung Putri",
              "city": "Bogor",
              "coordinates": {
                "lat": -6.4234,
                "lng": 106.9012
              }
            },
            {
              "name": "LaundryKlin Cikeas Cibubur",
              "address": "Jl. Letda Nasir No. 80, Gunung Putri",
              "city": "Bogor",
              "coordinates": {
                "lat": -6.4567,
                "lng": 106.9123
              }
            }
          ]
        },
        {
          "region": "Banten",
          "outlets": [
            {
              "name": "LaundryKlin Bintaro",
              "address": "Jl. Pondok Jaya No. 43, Pondok Aren",
              "city": "Tangerang Selatan",
              "coordinates": {
                "lat": -6.2554735,
                "lng": 106.6809909
              }
            },
            {
              "name": "LaundryKlin Gading Serpong",
              "address": "Medang, Pagedangan",
              "city": "Tangerang",
              "coordinates": {
                "lat": -6.266547,
                "lng": 106.6120278
              }
            },
            {
              "name": "LaundryKlin PCI Cilegon",
              "address": "Komplek PCI BLOK E19 No.1, Cibeber",
              "city": "Cilegon",
              "coordinates": {
                "lat": -6.0234,
                "lng": 106.0123
              }
            },
            {
              "name": "LaundryKlin Nobibara Serang",
              "address": "Jl. Yudistira 13, Kramatwatu",
              "city": "Serang",
              "coordinates": {
                "lat": -6.0789,
                "lng": 106.1234
              }
            },
            {
              "name": "LaundryKlin Pranadita Serang",
              "address": "Jl. Kp Baru RT02/RW 05, Cipocok Jaya",
              "city": "Serang",
              "coordinates": {
                "lat": -6.1234,
                "lng": 106.1456
              }
            },
            {
              "name": "LaundryKlin PIK 2",
              "address": "Rumah Kantor La Riviera PIK 2, Blok B No. 16",
              "city": "Tangerang",
              "coordinates": {
                "lat": -6.0567,
                "lng": 106.6789
              }
            },
            {
              "name": "LaundryKlin Medina Karawaci",
              "address": "Apartment Medina, Jl. Kelapa Dua Raya No.93",
              "city": "Tangerang",
              "coordinates": {
                "lat": -6.2234,
                "lng": 106.6123
              }
            },
            {
              "name": "LaundryKlin Modernland",
              "address": "Jl. Premier Park 2 no C 11",
              "city": "Tangerang",
              "coordinates": {
                "lat": -6.1989,
                "lng": 106.6345
              }
            },
            {
              "name": "LaundryKlin Villa Bandara",
              "address": "Villa taman bandara blok a7 no 11a, Dadap",
              "city": "Tangerang",
              "coordinates": {
                "lat": -6.1234,
                "lng": 106.6567
              }
            },
            {
              "name": "LaundryKlin Situ Gintung",
              "address": "Jalan Gn. Raya No. 2, Ciputat Timur",
              "city": "Tangerang Selatan",
              "coordinates": {
                "lat": -6.3012,
                "lng": 106.7456
              }
            },
            {
              "name": "LaundryKlin Hanjuang BSD",
              "address": "Jl Hanjuang H2/18 Sektor 1.1 Selatan, BSD City",
              "city": "Tangerang Selatan",
              "coordinates": {
                "lat": -6.2789,
                "lng": 106.6678
              }
            },
            {
              "name": "LaundryKlin Piazza BSD",
              "address": "Piazza at The Mozia, BSD, Lengkong Kulon",
              "city": "Tangerang Selatan",
              "coordinates": {
                "lat": -6.2834,
                "lng": 106.6789
              }
            },
            {
              "name": "LaundryKlin BSD Serpong",
              "address": "Ruko Granada, Jalan Kencana Raya BSD",
              "city": "Tangerang Selatan",
              "coordinates": {
                "lat": -6.2912,
                "lng": 106.6567
              }
            },
            {
              "name": "LaundryKlin BSD City",
              "address": "Apartement Casa De Parco, Jalan BSD Raya Utama",
              "city": "Tangerang Selatan",
              "coordinates": {
                "lat": -6.2834,
                "lng": 106.6634
              }
            },
            {
              "name": "LaundryKlin Puspitek",
              "address": "Jalan Raya Puspitek, Babakan",
              "city": "Tangerang Selatan",
              "coordinates": {
                "lat": -6.3234,
                "lng": 106.6789
              }
            },
            {
              "name": "LaundryKlin Ceger",
              "address": "Jl Ceger Raya Pabuaran Barat No. 5",
              "city": "Tangerang Selatan",
              "coordinates": {
                "lat": -6.3123,
                "lng": 106.7234
              }
            },
            {
              "name": "LaundryKlin Hutama Karya",
              "address": "Kademangan, Setu",
              "city": "Tangerang Selatan",
              "coordinates": {
                "lat": -6.3356208,
                "lng": 106.6674081
              }
            },
            {
              "name": "LaundryKlin Point Cirendeu",
              "address": "Jalan Raya Cirendeu Ciputat",
              "city": "Tangerang Selatan",
              "coordinates": {
                "lat": -6.2917653,
                "lng": 106.7683233
              }
            },
            {
              "name": "LaundryKlin Cordoba BSD",
              "address": "Plaza Cordoba BSD, Blok I No. 11",
              "city": "Tangerang Selatan",
              "coordinates": {
                "lat": -6.2912,
                "lng": 106.6678
              }
            },
            {
              "name": "LaundryKlin Lengkong BSD",
              "address": "Jl. Lengkong Gudang Timur No. 4, Serpong",
              "city": "Tangerang Selatan",
              "coordinates": {
                "lat": -6.2947238,
                "lng": 106.6852777
              }
            },
            {
              "name": "LaundryKlin Akasa BSD",
              "address": "Apartement Akasa BSD Pure Living No. Kios Blok R1 No.12",
              "city": "Tangerang Selatan",
              "coordinates": {
                "lat": -6.2856,
                "lng": 106.6789
              }
            },
            {
              "name": "LaundryKlin Serdang",
              "address": "Jl. Raya Waringin Kurung Km 2, Harjatani",
              "city": "Serang",
              "coordinates": {
                "lat": -6.1012,
                "lng": 106.1567
              }
            },
            {
              "name": "LaundryKlin Temu Putih",
              "address": "Jl. Temu Putih, Ciwaduk",
              "city": "Cilegon",
              "coordinates": {
                "lat": -6.0180344,
                "lng": 106.0502423
              }
            },
            {
              "name": "LaundryKlin Gondangdia Bintaro",
              "address": "Jl. Puyuh Timur Blok EH 4 No.10 Sektor 5, Bintaro Jaya",
              "city": "Tangerang Selatan",
              "coordinates": {
                "lat": -6.2534,
                "lng": 106.7178
              }
            },
            {
              "name": "LaundryKlin Karawaci",
              "address": "Perumnas 2 Ruko Taman Borobudur 1, Karawaci",
              "city": "Tangerang",
              "coordinates": {
                "lat": -6.2234,
                "lng": 106.6234
              }
            },
            {
              "name": "LaundryKlin Citra Maja",
              "address": "Citra Maja Raya, Ruko Citra B33/128",
              "city": "Tangerang",
              "coordinates": {
                "lat": -6.3456,
                "lng": 106.4234
              }
            },
            {
              "name": "LaundryKlin Gading Serpong Market",
              "address": "Pasar Modern Paramount, Boulevard Raya Gading Serpong",
              "city": "Tangerang",
              "coordinates": {
                "lat": -6.2345,
                "lng": 106.6234
              }
            }
          ]
        },
        {
          "region": "Jawa Timur",
          "outlets": [
            {
              "name": "LaundryKlin Triple S Surabaya",
              "address": "Menanggal Utara no 58B",
              "city": "Surabaya",
              "coordinates": {
                "lat": -7.3409812,
                "lng": 112.719824
              }
            },
            {
              "name": "LaundryKlin Manukan",
              "address": "Jl. Manukan Lor Blok 3K No.9",
              "city": "Surabaya",
              "coordinates": {
                "lat": -7.2567,
                "lng": 112.6789
              }
            },
            {
              "name": "LaundryKlin Kertajaya",
              "address": "Jl. Kertajaya IV Raya, No. 21-23, Gubeng",
              "city": "Surabaya",
              "coordinates": {
                "lat": -7.2789,
                "lng": 112.7567
              }
            },
            {
              "name": "LaundryKlin Kendalsari",
              "address": "Ruko Nirwana Executive Jln. Raya Kendalsari Rk. No. 76, Rungkut",
              "city": "Surabaya",
              "coordinates": {
                "lat": -7.3123,
                "lng": 112.7789
              }
            },
            {
              "name": "LaundryKlin Dharmawangsa",
              "address": "Jl. Raya Dharmawangsa No. 90, Gubeng",
              "city": "Surabaya",
              "coordinates": {
                "lat": -7.2834,
                "lng": 112.7567
              }
            },
            {
              "name": "LaundryKlin Surabaya Barat",
              "address": "Northwest Boulevard NV2 no 17, Citraland",
              "city": "Surabaya",
              "coordinates": {
                "lat": -7.2912,
                "lng": 112.6567
              }
            },
            {
              "name": "LaundryKlin Ketintang",
              "address": "Jl. Ketintang No.47, Gayungan",
              "city": "Surabaya",
              "coordinates": {
                "lat": -7.3234,
                "lng": 112.7234
              }
            },
            {
              "name": "LaundryKlin Siwalankerto",
              "address": "Jalan Siwalankerto No. 147, Wonocolo",
              "city": "Surabaya",
              "coordinates": {
                "lat": -7.3395898,
                "lng": 112.7349173
              }
            },
            {
              "name": "LaundryKlin Menganti",
              "address": "Jalan Raya Bringkang, Menganti",
              "city": "Gresik",
              "coordinates": {
                "lat": -7.2567,
                "lng": 112.5789
              }
            },
            {
              "name": "LaundryKlin Malang",
              "address": "Jalan Puncak Jaya Ujung, Kav 7",
              "city": "Malang",
              "coordinates": {
                "lat": -7.9717188,
                "lng": 112.6101296
              }
            },
            {
              "name": "LaundryKlin Dirgantara Malang",
              "address": "Jl. Dirgantara, Lesanpuro, Kedungkandang",
              "city": "Malang",
              "coordinates": {
                "lat": -7.9850431,
                "lng": 112.6544243
              }
            },
            {
              "name": "LaundryKlin Blitar",
              "address": "Ruko Jl. Kalimantan 42A",
              "city": "Blitar",
              "coordinates": {
                "lat": -8.0956,
                "lng": 112.1567
              }
            }
          ]
        },
        {
          "region": "Jawa Tengah & Yogyakarta",
          "outlets": [
            {
              "name": "LaundryKlin Sampangan",
              "address": "Jl. Menoreh Raya 19B",
              "city": "Semarang",
              "coordinates": {
                "lat": -6.9945,
                "lng": 110.4012
              }
            },
            {
              "name": "LaundryKlin Cordova Semarang",
              "address": "Cordova Edupartment Building, Jl. Bukit Sari Raya, Banyumanik",
              "city": "Semarang",
              "coordinates": {
                "lat": -7.0456,
                "lng": 110.4234
              }
            },
            {
              "name": "LaundryKlin BSB Semarang",
              "address": "Beranda Galeria A12B, Mijen",
              "city": "Semarang",
              "coordinates": {
                "lat": -7.0567,
                "lng": 110.3234
              }
            },
            {
              "name": "LaundryKlin Soekarno Hatta",
              "address": "JL. Soekarno Hatta 179, Semarang",
              "city": "Semarang",
              "coordinates": {
                "lat": -6.9307821,
                "lng": 110.2082595
              }
            },
            {
              "name": "LaundryKlin Sompok Baru",
              "address": "Jl. Sompok Baru No.86, Lamper Kidul",
              "city": "Semarang",
              "coordinates": {
                "lat": -6.9956,
                "lng": 110.4234
              }
            },
            {
              "name": "LaundryKlin Pekalongan",
              "address": "Jln. Bina Griya no.641, Medono, Pekalongan Barat",
              "city": "Pekalongan",
              "coordinates": {
                "lat": -6.8912,
                "lng": 109.6789
              }
            },
            {
              "name": "LaundryKlin Cilacap",
              "address": "Jl. Rinjani No.121, Sidanegara",
              "city": "Cilacap",
              "coordinates": {
                "lat": -7.7234,
                "lng": 109.0123
              }
            },
            {
              "name": "LaundryKlin Purwokerto",
              "address": "Jl. Jendral Sudirman No.373",
              "city": "Purwokerto",
              "coordinates": {
                "lat": -7.4234,
                "lng": 109.2345
              }
            },
            {
              "name": "LaundryKlin Purbalingga",
              "address": "Jalan Mayjend Sungkono, Sebrang Pasar Segamas",
              "city": "Purbalingga",
              "coordinates": {
                "lat": -7.3912,
                "lng": 109.3634
              }
            },
            {
              "name": "LaundryKlin Boyolali",
              "address": "Banarjo RT 5/5, Gagaksipat, Ngemplak",
              "city": "Boyolali",
              "coordinates": {
                "lat": -7.5234,
                "lng": 110.6012
              }
            },
            {
              "name": "LaundryKlin CaturTunggal",
              "address": "Jalan Bougenville, No. 01, Karang Gayam, Depok, Sleman",
              "city": "Yogyakarta",
              "coordinates": {
                "lat": -7.7689,
                "lng": 110.3934
              }
            },
            {
              "name": "LaundryKlin Mataram",
              "address": "Jl. Selokan Mataram No 50",
              "city": "Yogyakarta",
              "coordinates": {
                "lat": -7.774428,
                "lng": 110.1973137
              }
            },
            {
              "name": "LaundryKlin ConCat",
              "address": "Jl. Prawiro Kuat No.129, Condongcatur, Depok, Sleman",
              "city": "Yogyakarta",
              "coordinates": {
                "lat": -7.7567,
                "lng": 110.3989
              }
            },
            {
              "name": "LaundryKlin Cempaka Yogya",
              "address": "Jalan Cempaka No.60 Condong Catur, Sleman",
              "city": "Yogyakarta",
              "coordinates": {
                "lat": -7.7656,
                "lng": 110.3956
              }
            }
          ]
        },
        {
          "region": "Sumatera",
          "outlets": [
            {
              "name": "LaundryKlin Durian Walk Medan",
              "address": "Jl. Hj Muhammad Said",
              "city": "Medan",
              "coordinates": {
                "lat": 3.5789,
                "lng": 98.6789
              }
            },
            {
              "name": "LaundryKlin Padang Sidempuan",
              "address": "Jl. Sudirman ex Merdeka No. 104",
              "city": "Padang Sidempuan",
              "coordinates": {
                "lat": 1.3789,
                "lng": 99.2789
              }
            },
            {
              "name": "LaundryKlin Palembang",
              "address": "Ruko Graha Raflesia Blok Q, Jl. Sako Baru",
              "city": "Palembang",
              "coordinates": {
                "lat": -2.9234,
                "lng": 104.7567
              }
            },
            {
              "name": "LaundryKlin PHDM Palembang",
              "address": "Jalan RE Martadinata Komplek PHDM 12 no 105",
              "city": "Palembang",
              "coordinates": {
                "lat": -2.9456,
                "lng": 104.7345
              }
            },
            {
              "name": "LaundryKlin Jambi",
              "address": "Jl. Jend A Thalib No.76 Simpang IV Sipin",
              "city": "Jambi",
              "coordinates": {
                "lat": -1.5912,
                "lng": 103.6012
              }
            },
            {
              "name": "LaundryKlin RB Siagian Jambi",
              "address": "Jl. RB Siagian RT 22, Jambi Selatan",
              "city": "Jambi",
              "coordinates": {
                "lat": -1.6234,
                "lng": 103.6234
              }
            },
            {
              "name": "LaundryKlin Lampung",
              "address": "JL. RAYA WAY HUWI, JATI AGUNG, LAMPUNG SELATAN",
              "city": "Lampung",
              "coordinates": {
                "lat": -5.4234,
                "lng": 105.2678
              }
            },
            {
              "name": "LaundryKlin Lumba Lumba Pekanbaru",
              "address": "Lumba Lumba Harapan Raya, Tangkerang Selatan",
              "city": "Pekanbaru",
              "coordinates": {
                "lat": 0.5234,
                "lng": 101.4567
              }
            },
            {
              "name": "LaundryKlin Harapan Raya Pekanbaru",
              "address": "Jl. Surabaya No. 96 B, Tangkerang Selatan",
              "city": "Pekanbaru",
              "coordinates": {
                "lat": 0.5156,
                "lng": 101.4678
              }
            },
            {
              "name": "LaundryKlin Sukajadi Pekanbaru",
              "address": "Jl. Balam Ujung No. 25, Sukajadi",
              "city": "Pekanbaru",
              "coordinates": {
                "lat": 0.4934,
                "lng": 101.4234
              }
            },
            {
              "name": "LaundryKlin Delima Pekanbaru",
              "address": "Ruko Hijau S-05, Jl. Melati Indah, Delima",
              "city": "Pekanbaru",
              "coordinates": {
                "lat": 0.4789,
                "lng": 101.4389
              }
            },
            {
              "name": "LaundryKlin Dharma Bakti Pekanbaru",
              "address": "Jalan Sidodadi no 8, Labuh Baru Barat",
              "city": "Pekanbaru",
              "coordinates": {
                "lat": 0.5164231,
                "lng": 101.4096271
              }
            },
            {
              "name": "LaundryKlin Seroja Pekanbaru",
              "address": "JALAN SEROJA NO.48 A",
              "city": "Pekanbaru",
              "coordinates": {
                "lat": 0.5089,
                "lng": 101.4456
              }
            }
          ]
        },
        {
          "region": "Kalimantan",
          "outlets": [
            {
              "name": "LaundryKlin Karang Anyar Tarakan",
              "address": "Jl. Jend. Sudirman No 9 RT 17, Tarakan Barat",
              "city": "Tarakan",
              "coordinates": {
                "lat": 3.3234,
                "lng": 117.5789
              }
            },
            {
              "name": "LaundryKlin Samarinda Seberang",
              "address": "Jl. Sultan Hasanuddin No. 13 Baqa",
              "city": "Samarinda",
              "coordinates": {
                "lat": -0.4934,
                "lng": 117.1234
              }
            },
            {
              "name": "LaundryKlin Samarinda",
              "address": "Jl. Danau Toba No.21, Sungai Pinang Luar",
              "city": "Samarinda",
              "coordinates": {
                "lat": -0.4952324,
                "lng": 117.1523822
              }
            },
            {
              "name": "LaundryKlin Pisa Palangkaraya",
              "address": "Jl. Temanggung Tilung Induk, Jekan Raya",
              "city": "Palangka Raya",
              "coordinates": {
                "lat": -2.2234,
                "lng": 113.9234
              }
            },
            {
              "name": "LaundryKlin Palangka Raya",
              "address": "Jl. Sangga Buana I No. 668",
              "city": "Palangka Raya",
              "coordinates": {
                "lat": -2.2134,
                "lng": 113.9345
              }
            },
            {
              "name": "LaundryKlin Tabalong",
              "address": "Pembataan, Murung Pudak, Tabalong",
              "city": "Tabalong",
              "coordinates": {
                "lat": -2.3456,
                "lng": 115.4567
              }
            },
            {
              "name": "LaundryKlin Ruko Bandar Balikpapan",
              "address": "Jl. Jend Sudirman, Ruko Bandar Blok C No 07",
              "city": "Balikpapan",
              "coordinates": {
                "lat": -1.2678,
                "lng": 116.8234
              }
            },
            {
              "name": "LaundryKlin Balikpapan",
              "address": "Jalan Jendral Ahmad Yani No. 37",
              "city": "Balikpapan",
              "coordinates": {
                "lat": -1.2567,
                "lng": 116.8456
              }
            }
          ]
        },
        {
          "region": "Sulawesi",
          "outlets": [
            {
              "name": "LaundryKlin Cendrawasih Makassar",
              "address": "Jl. Cendrawasih No 242, Marisoh",
              "city": "Makassar",
              "coordinates": {
                "lat": -5.1567,
                "lng": 119.4234
              }
            },
            {
              "name": "LaundryKlin Dr Sutomo Manado",
              "address": "Jl. Dr Sutomo No 10A, Pinaesaan Wenang",
              "city": "Manado",
              "coordinates": {
                "lat": 1.4789,
                "lng": 124.8456
              }
            },
            {
              "name": "LaundryKlin PLC Bitung",
              "address": "Gedung Peoplesight Learning Center (PLC) Jalan 46",
              "city": "Bitung",
              "coordinates": {
                "lat": 1.4456,
                "lng": 125.1234
              }
            }
          ]
        },
        {
          "region": "Bali & Nusa Tenggara",
          "outlets": [
            {
              "name": "LaundryKlin Renon Bali",
              "address": "Jl. Tukad Yeh Aya No.99x, Renon, Denpasar Selatan",
              "city": "Denpasar",
              "coordinates": {
                "lat": -8.6789,
                "lng": 115.2234
              }
            },
            {
              "name": "LaundryKlin Denpasar",
              "address": "Jalan Seroja no 59, Tonja, Denpasar Utara",
              "city": "Denpasar",
              "coordinates": {
                "lat": -8.6306484,
                "lng": 115.2282481
              }
            },
            {
              "name": "LaundryKlin Singaraja",
              "address": "Jl. Srikandi no 10x, Baktiseraga",
              "city": "Singaraja",
              "coordinates": {
                "lat": -8.1234,
                "lng": 115.0912
              }
            },
            {
              "name": "LaundryKlin Lombok",
              "address": "Jl. Yos Sudarso 118, Ampenan",
              "city": "Mataram",
              "coordinates": {
                "lat": -8.5715616,
                "lng": 116.0778018
              }
            }
          ]
        },
        {
          "region": "Kepulauan Riau",
          "outlets": [
            {
              "name": "LaundryKlin Amanah Tiban Batam",
              "address": "Komp. Ruko Golden Wealth Blok C No. 2, Tiban Baru",
              "city": "Batam",
              "coordinates": {
                "lat": 1.0456,
                "lng": 104.0234
              }
            },
            {
              "name": "LaundryKlin Batam",
              "address": "Ruko Golden Gate Blok A No 6",
              "city": "Batam",
              "coordinates": {
                "lat": 1.0567,
                "lng": 104.0345
              }
            },
            {
              "name": "LaundryKlin Pemuda Tanjung Pinang",
              "address": "Jalan Pemuda, No 10A",
              "city": "Tanjung Pinang",
              "coordinates": {
                "lat": 0.9043784,
                "lng": 104.4641647
              }
            },
            {
              "name": "LaundryKlin KM 11 Tanjung Pinang",
              "address": "Jl. Arah Tj. Uban Km. 11 No 15",
              "city": "Tanjung Pinang",
              "coordinates": {
                "lat": 0.9345,
                "lng": 104.4634
              }
            }
          ]
        }
      ]
    }
  ]
}